% program   : rnx2rtkp ver.2.4.3 b34
% inp file  : 76291969.21O
% inp file  : 76291969.21N
% obs start : 2021/07/15 13:31:38.0 GPST (week2166 394298.0s)
% obs end   : 2021/07/15 13:48:38.8 GPST (week2166 395318.8s)
%
% (lat/lon/height=WGS84/ellipsoidal,Q=1:fix,2:float,3:sbas,4:dgps,5:single,6:ppp,ns=# of satellites)
%  GPST          latitude(deg) longitude(deg)  height(m)   Q  ns   sdn(m)   sde(m)   sdu(m)  sdne(m)  sdeu(m)  sdun(m) age(s)  ratio
2166 394298.000   78.843054382   12.605311636   171.5285   5   8   5.0231   3.7501  18.9768  -1.2112  -0.7385   6.4709   0.00    0.0
2166 394298.200   78.843056828   12.605327708   171.8336   5   8   5.0232   3.7501  18.9772  -1.2112  -0.7378   6.4713   0.00    0.0
2166 394298.400   78.843056488   12.605325688   171.6927   5   8   5.0233   3.7502  18.9776  -1.2112  -0.7370   6.4718   0.00    0.0
2166 394298.600   78.843061184   12.605307488   171.1801   5   8   5.0235   3.7502  18.9781  -1.2111  -0.7363   6.4723   0.00    0.0
2166 394298.800   78.843059560   12.605299002   171.4798   5   8   5.0236   3.7502  18.9785  -1.2111  -0.7356   6.4728   0.00    0.0
2166 394299.000   78.843054335   12.605276225   171.9747   5   8   5.0238   3.7502  18.9789  -1.2111  -0.7348   6.4732   0.00    0.0
2166 394299.200   78.843061019   12.605299294   172.5905   5   8   5.0239   3.7502  18.9793  -1.2111  -0.7341   6.4737   0.00    0.0
2166 394299.400   78.843061494   12.605311465   171.3803   5   8   5.0240   3.7502  18.9797  -1.2111  -0.7334   6.4742   0.00    0.0
2166 394299.600   78.843062967   12.605327886   171.1779   5   8   5.0242   3.7502  18.9801  -1.2111  -0.7326   6.4747   0.00    0.0
2166 394299.800   78.843063055   12.605322168   170.4995   5   8   5.0243   3.7502  18.9805  -1.2111  -0.7319   6.4752   0.00    0.0
2166 394300.000   78.843065990   12.605313041   171.6290   5   9   3.8412   3.7432  12.9325  -0.8492   1.6322  -1.7507   0.00    0.0
2166 394300.200   78.843069279   12.605318549   172.4411   5   9   3.8412   3.7432  12.9320  -0.8492   1.6324  -1.7506   0.00    0.0
2166 394300.400   78.843067720   12.605329847   172.2452   5   9   3.8412   3.7432  12.9316  -0.8493   1.6326  -1.7506   0.00    0.0
2166 394300.600   78.843068069   12.605334484   172.5283   5   9   3.8412   3.7432  12.9311  -0.8493   1.6328  -1.7506   0.00    0.0
2166 394300.800   78.843067013   12.605326909   171.4794   5   9   3.8413   3.7432  12.9307  -0.8494   1.6330  -1.7506   0.00    0.0
2166 394301.000   78.843068885   12.605331143   172.4659   5   9   3.8413   3.7432  12.9302  -0.8494   1.6332  -1.7506   0.00    0.0
2166 394301.200   78.843068523   12.605343299   172.6028   5   9   3.8413   3.7432  12.9298  -0.8495   1.6334  -1.7505   0.00    0.0
2166 394301.400   78.843071367   12.605341585   173.3374   5   9   3.8413   3.7433  12.9293  -0.8495   1.6337  -1.7505   0.00    0.0
2166 394301.600   78.843074013   12.605332354   171.8420   5   9   3.8413   3.7433  12.9289  -0.8496   1.6339  -1.7505   0.00    0.0
2166 394301.800   78.843077760   12.605339474   172.7606   5   9   3.8413   3.7433  12.9284  -0.8496   1.6341  -1.7505   0.00    0.0
2166 394302.000   78.843078025   12.605327200   172.0293   5   9   3.8413   3.7433  12.9280  -0.8497   1.6343  -1.7505   0.00    0.0
2166 394302.200   78.843077871   12.605309158   172.2446   5   9   3.8413   3.7433  12.9275  -0.8497   1.6345  -1.7504   0.00    0.0
2166 394302.400   78.843076515   12.605307598   172.9218   5   9   3.8413   3.7433  12.9271  -0.8497   1.6347  -1.7504   0.00    0.0
2166 394302.600   78.843075363   12.605320803   172.6537   5   9   3.8413   3.7433  12.9267  -0.8498   1.6349  -1.7504   0.00    0.0
2166 394302.800   78.843079251   12.605326014   172.8819   5   9   3.8413   3.7433  12.9262  -0.8498   1.6351  -1.7504   0.00    0.0
2166 394303.000   78.843084116   12.605316784   172.2888   5   9   3.8413   3.7434  12.9258  -0.8499   1.6353  -1.7503   0.00    0.0
2166 394303.200   78.843085083   12.605316653   173.4287   5   9   3.8413   3.7434  12.9253  -0.8499   1.6355  -1.7503   0.00    0.0
2166 394303.400   78.843084224   12.605317650   171.5955   5   9   3.8413   3.7434  12.9249  -0.8500   1.6357  -1.7503   0.00    0.0
2166 394303.600   78.843082210   12.605323254   172.7116   5   9   3.8413   3.7434  12.9244  -0.8500   1.6359  -1.7503   0.00    0.0
2166 394303.800   78.843082339   12.605324449   172.5992   5   9   3.8413   3.7434  12.9240  -0.8501   1.6361  -1.7503   0.00    0.0
2166 394304.000   78.843086419   12.605308497   172.9176   5   9   3.8413   3.7434  12.9235  -0.8501   1.6363  -1.7502   0.00    0.0
2166 394304.200   78.843090513   12.605310297   172.8635   5   9   3.8413   3.7434  12.9231  -0.8502   1.6365  -1.7502   0.00    0.0
2166 394304.400   78.843090650   12.605317977   172.3404   5   9   3.8413   3.7434  12.9226  -0.8502   1.6368  -1.7502   0.00    0.0
2166 394304.600   78.843089685   12.605320289   172.4240   5   9   3.8413   3.7435  12.9222  -0.8503   1.6370  -1.7502   0.00    0.0
2166 394304.800   78.843091469   12.605321781   172.8735   5   9   3.8413   3.7435  12.9217  -0.8503   1.6372  -1.7502   0.00    0.0
2166 394305.000   78.843093542   12.605308931   173.7964   5   9   3.8414   3.7435  12.9213  -0.8504   1.6374  -1.7501   0.00    0.0
2166 394305.200   78.843092804   12.605309737   173.6442   5   9   3.8414   3.7435  12.9208  -0.8504   1.6376  -1.7501   0.00    0.0
2166 394305.400   78.843090984   12.605309354   173.2426   5   9   3.8414   3.7435  12.9204  -0.8505   1.6378  -1.7501   0.00    0.0
2166 394305.600   78.843091401   12.605310451   173.0562   5   9   3.8414   3.7435  12.9199  -0.8505   1.6380  -1.7501   0.00    0.0
2166 394305.800   78.843093388   12.605316897   172.4700   5   9   3.8414   3.7435  12.9195  -0.8506   1.6382  -1.7501   0.00    0.0
2166 394306.000   78.843090239   12.605317401   172.9111   5   9   3.8414   3.7435  12.9190  -0.8506   1.6384  -1.7500   0.00    0.0
2166 394306.200   78.843090583   12.605321718   171.9280   5   9   3.8414   3.7436  12.9185  -0.8507   1.6386  -1.7500   0.00    0.0
2166 394306.400   78.843092788   12.605318157   171.7549   5   9   3.8414   3.7436  12.9181  -0.8507   1.6388  -1.7500   0.00    0.0
2166 394306.600   78.843094251   12.605311359   172.2621   5   9   3.8414   3.7436  12.9176  -0.8508   1.6390  -1.7500   0.00    0.0
2166 394306.800   78.843096556   12.605299521   173.0100   5   9   3.8414   3.7436  12.9172  -0.8508   1.6392  -1.7499   0.00    0.0
2166 394307.000   78.843096835   12.605307526   173.0881   5   9   3.8414   3.7436  12.9167  -0.8509   1.6394  -1.7499   0.00    0.0
2166 394307.200   78.843093370   12.605317758   173.1577   5   9   3.8414   3.7436  12.9163  -0.8509   1.6396  -1.7499   0.00    0.0
2166 394307.400   78.843096505   12.605330943   173.3558   5   9   3.8414   3.7436  12.9158  -0.8510   1.6398  -1.7499   0.00    0.0
2166 394307.600   78.843100372   12.605323286   173.3779   5   9   3.8414   3.7436  12.9154  -0.8510   1.6400  -1.7499   0.00    0.0
2166 394307.800   78.843101745   12.605310484   173.2665   5   9   3.8414   3.7437  12.9149  -0.8511   1.6402  -1.7498   0.00    0.0
2166 394308.000   78.843102884   12.605291982   172.7832   5   9   3.8414   3.7437  12.9145  -0.8511   1.6404  -1.7498   0.00    0.0
2166 394308.200   78.843099710   12.605300815   172.9969   5   9   3.8414   3.7437  12.9140  -0.8511   1.6406  -1.7498   0.00    0.0
2166 394308.400   78.843100130   12.605292187   171.8625   5   9   3.8414   3.7437  12.9136  -0.8512   1.6408  -1.7498   0.00    0.0
2166 394308.600   78.843102623   12.605273172   172.0583   5   9   3.8414   3.7437  12.9131  -0.8512   1.6411  -1.7498   0.00    0.0
2166 394308.800   78.843102160   12.605279842   172.3754   5   9   3.8414   3.7437  12.9127  -0.8513   1.6413  -1.7497   0.00    0.0
2166 394309.000   78.843102862   12.605278101   172.5647   5   9   3.8414   3.7437  12.9122  -0.8513   1.6415  -1.7497   0.00    0.0
2166 394309.200   78.843106808   12.605276112   171.5242   5   9   3.8414   3.7438  12.9118  -0.8514   1.6417  -1.7497   0.00    0.0
2166 394309.400   78.843109691   12.605259119   171.0782   5   9   3.8415   3.7438  12.9113  -0.8514   1.6419  -1.7497   0.00    0.0
2166 394309.600   78.843106142   12.605247370   171.5200   5   9   3.8415   3.7438  12.9109  -0.8515   1.6421  -1.7496   0.00    0.0
2166 394309.800   78.843105828   12.605245605   172.7557   5   9   3.8415   3.7438  12.9104  -0.8515   1.6423  -1.7496   0.00    0.0
2166 394310.000   78.843105643   12.605252870   172.5308   5   9   3.8415   3.7438  12.9100  -0.8516   1.6425  -1.7496   0.00    0.0
2166 394310.200   78.843102457   12.605261500   173.2130   5   9   3.8415   3.7438  12.9095  -0.8516   1.6427  -1.7496   0.00    0.0
2166 394310.400   78.843103656   12.605271278   172.8561   5   9   3.8415   3.7438  12.9091  -0.8517   1.6429  -1.7496   0.00    0.0
2166 394310.600   78.843105367   12.605263660   172.4742   5   9   3.8415   3.7438  12.9086  -0.8517   1.6431  -1.7495   0.00    0.0
2166 394310.800   78.843108398   12.605246058   172.8196   5   9   3.8415   3.7439  12.9082  -0.8518   1.6433  -1.7495   0.00    0.0
2166 394311.000   78.843111328   12.605236906   172.5972   5   9   3.8415   3.7439  12.9077  -0.8518   1.6435  -1.7495   0.00    0.0
2166 394311.200   78.843112067   12.605228428   173.1874   5   9   3.8415   3.7439  12.9073  -0.8519   1.6437  -1.7495   0.00    0.0
2166 394311.400   78.843112746   12.605219994   172.8812   5   9   3.8415   3.7439  12.9068  -0.8519   1.6439  -1.7494   0.00    0.0
2166 394311.600   78.843112934   12.605213470   172.4994   5   9   3.8415   3.7439  12.9064  -0.8520   1.6441  -1.7494   0.00    0.0
2166 394311.800   78.843113065   12.605216416   171.7404   5   9   3.8415   3.7439  12.9059  -0.8520   1.6443  -1.7494   0.00    0.0
2166 394312.000   78.843113729   12.605228923   171.2203   5   9   3.8415   3.7439  12.9055  -0.8521   1.6445  -1.7494   0.00    0.0
2166 394312.200   78.843118074   12.605233262   171.7986   5   9   3.8415   3.7439  12.9050  -0.8521   1.6447  -1.7494   0.00    0.0
2166 394312.400   78.843118915   12.605218172   172.2663   5   9   3.8415   3.7440  12.9046  -0.8522   1.6449  -1.7493   0.00    0.0
2166 394312.600   78.843115807   12.605205570   172.4014   5   9   3.8415   3.7440  12.9041  -0.8522   1.6451  -1.7493   0.00    0.0
2166 394312.800   78.843117517   12.605218228   172.5372   5   9   3.8415   3.7440  12.9037  -0.8523   1.6453  -1.7493   0.00    0.0
2166 394313.000   78.843114608   12.605219350   173.5139   5   9   3.8415   3.7440  12.9032  -0.8523   1.6455  -1.7493   0.00    0.0
2166 394313.200   78.843117157   12.605210632   173.7646   5   9   3.8415   3.7440  12.9027  -0.8524   1.6457  -1.7493   0.00    0.0
2166 394313.400   78.843119347   12.605207593   172.7696   5   9   3.8415   3.7440  12.9023  -0.8524   1.6459  -1.7492   0.00    0.0
2166 394313.600   78.843117883   12.605214964   171.8121   5   9   3.8415   3.7440  12.9018  -0.8524   1.6461  -1.7492   0.00    0.0
2166 394313.800   78.843115133   12.605223859   172.0886   5   9   3.8416   3.7440  12.9014  -0.8525   1.6463  -1.7492   0.00    0.0
2166 394314.000   78.843115914   12.605240094   172.2624   5   9   3.8416   3.7441  12.9009  -0.8525   1.6465  -1.7492   0.00    0.0
2166 394314.200   78.843119416   12.605229666   172.9368   5   9   3.8416   3.7441  12.9005  -0.8526   1.6467  -1.7491   0.00    0.0
2166 394314.400   78.843120299   12.605213117   172.0263   5   9   3.8416   3.7441  12.9000  -0.8526   1.6469  -1.7491   0.00    0.0
2166 394314.600   78.843118917   12.605221201   172.5726   5   9   3.8416   3.7441  12.8996  -0.8527   1.6471  -1.7491   0.00    0.0
2166 394314.800   78.843117448   12.605218441   173.2449   5   9   3.8416   3.7441  12.8991  -0.8527   1.6473  -1.7491   0.00    0.0
2166 394315.000   78.843117924   12.605233327   172.7890   5   9   3.8416   3.7441  12.8987  -0.8528   1.6475  -1.7490   0.00    0.0
2166 394315.200   78.843120782   12.605230985   173.7304   5   9   3.8416   3.7441  12.8982  -0.8528   1.6477  -1.7490   0.00    0.0
2166 394315.400   78.843122333   12.605208731   172.6026   5   9   3.8416   3.7441  12.8978  -0.8529   1.6480  -1.7490   0.00    0.0
2166 394315.600   78.843124831   12.605200277   171.0892   5   9   3.8416   3.7442  12.8973  -0.8529   1.6482  -1.7490   0.00    0.0
2166 394315.800   78.843127533   12.605182048   171.8469   5   9   3.8416   3.7442  12.8969  -0.8530   1.6484  -1.7490   0.00    0.0
2166 394316.000   78.843126749   12.605171792   173.2290   5   9   3.8416   3.7442  12.8964  -0.8530   1.6486  -1.7489   0.00    0.0
2166 394316.200   78.843125593   12.605181330   173.8406   5   9   3.8416   3.7442  12.8960  -0.8531   1.6488  -1.7489   0.00    0.0
2166 394316.800   78.843106469   12.604967600   172.5734   5   5  12.6775  20.1643  13.5361  15.1316  -4.9104  -4.8933   0.00    0.0
2166 394317.000   78.843126386   12.605188847   172.8192   5   8   3.9141   4.3879  13.1335  -1.5632   2.9037  -2.2203   0.00    0.0
2166 394317.200   78.843126122   12.605219617   173.2369   5   9   3.8416   3.7443  12.8937  -0.8533   1.6498  -1.7488   0.00    0.0
2166 394317.400   78.843131211   12.605212488   174.9351   5   9   3.8416   3.7443  12.8932  -0.8534   1.6500  -1.7488   0.00    0.0
2166 394317.600   78.843130364   12.605206781   174.6568   5   9   3.8416   3.7443  12.8928  -0.8534   1.6502  -1.7488   0.00    0.0
2166 394317.800   78.843128695   12.605179181   174.4007   5   9   3.8416   3.7443  12.8923  -0.8535   1.6504  -1.7487   0.00    0.0
2166 394318.000   78.843128469   12.605196749   173.4591   5   9   3.8416   3.7443  12.8919  -0.8535   1.6506  -1.7487   0.00    0.0
2166 394318.200   78.843129630   12.605197747   172.8164   5   9   3.8417   3.7443  12.8914  -0.8536   1.6508  -1.7487   0.00    0.0
2166 394318.400   78.843132675   12.605205724   172.7550   5   9   3.8417   3.7443  12.8910  -0.8536   1.6510  -1.7487   0.00    0.0
2166 394318.600   78.843134523   12.605187121   173.2934   5   9   3.8417   3.7444  12.8905  -0.8536   1.6512  -1.7486   0.00    0.0
2166 394318.800   78.843137109   12.605175411   173.8665   5   9   3.8417   3.7444  12.8901  -0.8537   1.6514  -1.7486   0.00    0.0
2166 394319.000   78.843137359   12.605179543   174.0218   5   9   3.8417   3.7444  12.8896  -0.8537   1.6516  -1.7486   0.00    0.0
2166 394319.200   78.843138460   12.605161785   174.4350   5   9   3.8417   3.7444  12.8892  -0.8538   1.6518  -1.7486   0.00    0.0
2166 394319.400   78.843140327   12.605144922   174.1674   5   9   3.8417   3.7444  12.8887  -0.8538   1.6520  -1.7486   0.00    0.0
2166 394319.600   78.843140433   12.605139744   173.4367   5   9   3.8417   3.7444  12.8882  -0.8539   1.6522  -1.7485   0.00    0.0
2166 394319.800   78.843138317   12.605145356   172.8338   5   9   3.8417   3.7444  12.8878  -0.8539   1.6524  -1.7485   0.00    0.0
2166 394320.000   78.843139600   12.605140868   171.9347   5   9   3.8417   3.7444  12.8873  -0.8540   1.6526  -1.7485   0.00    0.0
2166 394320.200   78.843137665   12.605155582   172.4130   5   9   3.8417   3.7445  12.8869  -0.8540   1.6528  -1.7485   0.00    0.0
2166 394320.400   78.843133725   12.605134177   170.3155   5   8   5.0386   3.7513  19.0223  -1.2104  -0.6516   6.5239   0.00    0.0
2166 394320.600   78.843129778   12.605149843   169.1603   5   8   5.0388   3.7513  19.0227  -1.2104  -0.6508   6.5244   0.00    0.0
2166 394320.800   78.843130355   12.605144533   169.9895   5   8   5.0389   3.7513  19.0231  -1.2104  -0.6500   6.5249   0.00    0.0
2166 394321.000   78.843127883   12.605144212   169.3166   5   8   5.0391   3.7513  19.0235  -1.2104  -0.6491   6.5253   0.00    0.0
2166 394321.200   78.843132679   12.605144094   169.4799   5   8   5.0392   3.7513  19.0239  -1.2103  -0.6483   6.5258   0.00    0.0
2166 394321.400   78.843135928   12.605127953   169.3586   5   8   5.0393   3.7513  19.0243  -1.2103  -0.6475   6.5263   0.00    0.0
2166 394321.600   78.843136698   12.605117210   170.0230   5   8   5.0395   3.7513  19.0247  -1.2103  -0.6466   6.5267   0.00    0.0
2166 394321.800   78.843138357   12.605101261   170.3357   5   8   5.0396   3.7513  19.0251  -1.2103  -0.6458   6.5272   0.00    0.0
2166 394322.000   78.843138871   12.605095140   169.9307   5   8   5.0397   3.7513  19.0255  -1.2103  -0.6449   6.5277   0.00    0.0
2166 394322.200   78.843137481   12.605080466   170.1957   5   8   5.0399   3.7514  19.0259  -1.2103  -0.6441   6.5282   0.00    0.0
2166 394322.400   78.843139560   12.605096128   170.6615   5   8   5.0400   3.7514  19.0263  -1.2103  -0.6433   6.5286   0.00    0.0
2166 394322.600   78.843137762   12.605098125   170.1481   5   8   5.0402   3.7514  19.0267  -1.2103  -0.6424   6.5291   0.00    0.0
2166 394322.800   78.843137522   12.605103649   169.7770   5   8   5.0403   3.7514  19.0271  -1.2103  -0.6416   6.5296   0.00    0.0
2166 394323.000   78.843141509   12.605095687   169.9955   5   8   5.0404   3.7514  19.0274  -1.2103  -0.6407   6.5300   0.00    0.0
2166 394323.200   78.843139747   12.605099423   170.5224   5   8   5.0406   3.7514  19.0278  -1.2103  -0.6399   6.5305   0.00    0.0
2166 394323.400   78.843140800   12.605094954   170.4593   5   8   5.0407   3.7514  19.0282  -1.2103  -0.6391   6.5310   0.00    0.0
2166 394323.600   78.843140138   12.605084337   169.6884   5   8   5.0409   3.7514  19.0286  -1.2102  -0.6382   6.5315   0.00    0.0
2166 394323.800   78.843142187   12.605063829   170.1994   5   8   5.0410   3.7514  19.0290  -1.2102  -0.6374   6.5319   0.00    0.0
2166 394324.000   78.843140998   12.605057500   168.7192   5   8   5.0411   3.7514  19.0294  -1.2102  -0.6365   6.5324   0.00    0.0
2166 394324.200   78.843141196   12.605047816   169.5028   5   8   5.0413   3.7515  19.0298  -1.2102  -0.6357   6.5329   0.00    0.0
2166 394324.400   78.843143125   12.605033368   171.5788   5   8   5.0414   3.7515  19.0302  -1.2102  -0.6348   6.5333   0.00    0.0
2166 394324.600   78.843142053   12.605058386   172.1807   5   8   5.0416   3.7515  19.0306  -1.2102  -0.6340   6.5338   0.00    0.0
2166 394324.800   78.843138545   12.605060868   169.9368   5   8   5.0417   3.7515  19.0310  -1.2102  -0.6331   6.5343   0.00    0.0
2166 394325.000   78.843141926   12.605060382   170.5280   5   8   5.0418   3.7515  19.0314  -1.2102  -0.6323   6.5347   0.00    0.0
2166 394325.200   78.843138933   12.605065535   171.2735   5   8   5.0420   3.7515  19.0318  -1.2102  -0.6314   6.5352   0.00    0.0
2166 394325.400   78.843142095   12.605064877   170.4442   5   8   5.0421   3.7515  19.0322  -1.2102  -0.6306   6.5357   0.00    0.0
2166 394325.600   78.843140097   12.605051797   168.7198   5   8   5.0423   3.7515  19.0326  -1.2102  -0.6297   6.5361   0.00    0.0
2166 394325.800   78.843138617   12.605030711   168.9218   5   7   9.5310   4.0018  32.9535   3.1308   6.0891  16.1339   0.00    0.0
2166 394326.000   78.843136959   12.605003541   168.8201   5   7   9.5309   4.0018  32.9523   3.1306   6.0889  16.1334   0.00    0.0
2166 394326.200   78.843132926   12.604995474   169.1147   5   7   9.5307   4.0018  32.9510   3.1305   6.0886  16.1330   0.00    0.0
2166 394326.400   78.843127285   12.605006526   166.0292   5   7   9.5306   4.0018  32.9498   3.1304   6.0884  16.1325   0.00    0.0
2166 394326.600   78.843132453   12.605006195   166.3093   5   7   9.5305   4.0018  32.9485   3.1303   6.0882  16.1321   0.00    0.0
2166 394326.800   78.843135162   12.605006113   167.1919   5   7   9.5304   4.0017  32.9473   3.1302   6.0879  16.1316   0.00    0.0
2166 394327.000   78.843136805   12.605016293   167.0442   5   7   9.5303   4.0017  32.9460   3.1301   6.0877  16.1312   0.00    0.0
2166 394327.200   78.843140438   12.605021396   168.3934   5   8   5.0434   3.7516  19.0357  -1.2101  -0.6228   6.5399   0.00    0.0
2166 394327.400   78.843142512   12.605026976   168.8832   5   8   5.0435   3.7516  19.0361  -1.2101  -0.6219   6.5404   0.00    0.0
2166 394327.600   78.843145929   12.605036561   169.6982   5   8   5.0437   3.7516  19.0365  -1.2101  -0.6211   6.5408   0.00    0.0
2166 394327.800   78.843148122   12.605025056   170.3318   5   8   5.0438   3.7516  19.0369  -1.2101  -0.6202   6.5413   0.00    0.0
2166 394328.000   78.843144678   12.605044372   169.7814   5   8   5.0439   3.7516  19.0373  -1.2101  -0.6193   6.5418   0.00    0.0
2166 394328.200   78.843143825   12.605039043   169.1962   5   8   5.0441   3.7517  19.0376  -1.2101  -0.6185   6.5422   0.00    0.0
2166 394328.400   78.843147441   12.605011721   169.4637   5   8   5.0442   3.7517  19.0380  -1.2101  -0.6176   6.5427   0.00    0.0
2166 394328.600   78.843151987   12.605000615   169.7450   5   8   5.0444   3.7517  19.0384  -1.2100  -0.6167   6.5432   0.00    0.0
2166 394328.800   78.843150582   12.604985723   170.3612   5   8   5.0445   3.7517  19.0388  -1.2100  -0.6158   6.5436   0.00    0.0
2166 394329.000   78.843147166   12.604992547   168.7150   5   8   5.0446   3.7517  19.0392  -1.2100  -0.6149   6.5441   0.00    0.0
2166 394329.200   78.843148149   12.604975693   168.3621   5   8   5.0448   3.7517  19.0396  -1.2100  -0.6140   6.5446   0.00    0.0
2166 394329.400   78.843149626   12.604963302   167.9819   5   8   5.0449   3.7517  19.0400  -1.2100  -0.6132   6.5451   0.00    0.0
2166 394329.600   78.843152795   12.604961207   167.7936   5   8   5.0450   3.7517  19.0404  -1.2100  -0.6123   6.5455   0.00    0.0
2166 394329.800   78.843152469   12.604972961   167.6905   5   8   5.0452   3.7517  19.0408  -1.2100  -0.6114   6.5460   0.00    0.0
2166 394330.000   78.843156004   12.604983760   169.7095   5   8   5.0453   3.7517  19.0412  -1.2100  -0.6105   6.5465   0.00    0.0
2166 394330.200   78.843156572   12.604979476   171.8974   5   8   5.0455   3.7518  19.0415  -1.2100  -0.6096   6.5469   0.00    0.0
2166 394330.400   78.843155869   12.604992582   171.2160   5   8   5.0456   3.7518  19.0419  -1.2100  -0.6088   6.5474   0.00    0.0
2166 394330.600   78.843152665   12.604975961   169.2474   5   8   5.0457   3.7518  19.0423  -1.2100  -0.6079   6.5479   0.00    0.0
2166 394330.800   78.843155656   12.604975522   169.4413   5   8   5.0459   3.7518  19.0427  -1.2100  -0.6070   6.5483   0.00    0.0
2166 394331.000   78.843155974   12.604961356   167.8366   5   8   5.0460   3.7518  19.0431  -1.2099  -0.6061   6.5488   0.00    0.0
2166 394331.200   78.843156122   12.604950879   169.1140   5   8   5.0462   3.7518  19.0435  -1.2099  -0.6052   6.5493   0.00    0.0
2166 394331.400   78.843157602   12.604943302   167.4247   5   8   5.0463   3.7518  19.0439  -1.2099  -0.6043   6.5497   0.00    0.0
2166 394331.600   78.843157906   12.604935429   167.5629   5   8   5.0464   3.7518  19.0443  -1.2099  -0.6034   6.5502   0.00    0.0
2166 394331.800   78.843161234   12.604939527   168.9942   5   8   5.0466   3.7518  19.0446  -1.2099  -0.6025   6.5507   0.00    0.0
2166 394332.000   78.843161883   12.604919453   170.5998   5   8   5.0467   3.7518  19.0450  -1.2099  -0.6016   6.5511   0.00    0.0
2166 394332.200   78.843161415   12.604941341   169.7845   5   8   5.0469   3.7519  19.0454  -1.2099  -0.6007   6.5516   0.00    0.0
2166 394332.400   78.843161870   12.604932808   168.4930   5   8   5.0470   3.7519  19.0458  -1.2099  -0.5998   6.5521   0.00    0.0
2166 394332.600   78.843159878   12.604927510   169.3955   5   8   5.0471   3.7519  19.0462  -1.2099  -0.5989   6.5525   0.00    0.0
2166 394332.800   78.843161896   12.604934774   169.9116   5   8   5.0473   3.7519  19.0466  -1.2099  -0.5980   6.5530   0.00    0.0
2166 394333.000   78.843166117   12.604911198   169.1593   5   8   5.0474   3.7519  19.0470  -1.2099  -0.5971   6.5535   0.00    0.0
2166 394333.200   78.843167119   12.604896102   169.2932   5   8   5.0476   3.7519  19.0474  -1.2098  -0.5962   6.5539   0.00    0.0
2166 394333.400   78.843166309   12.604898215   169.6650   5   8   5.0477   3.7519  19.0477  -1.2098  -0.5953   6.5544   0.00    0.0
2166 394333.600   78.843168252   12.604909070   170.0623   5   8   5.0478   3.7519  19.0481  -1.2098  -0.5944   6.5549   0.00    0.0
2166 394333.800   78.843171138   12.604898067   168.9561   5   8   5.0480   3.7519  19.0485  -1.2098  -0.5935   6.5553   0.00    0.0
2166 394334.000   78.843167897   12.604910328   169.8191   5   8   5.0481   3.7519  19.0489  -1.2098  -0.5926   6.5558   0.00    0.0
2166 394334.200   78.843166579   12.604899081   170.0883   5   8   5.0483   3.7520  19.0493  -1.2098  -0.5917   6.5563   0.00    0.0
2166 394334.400   78.843166023   12.604886881   169.8112   5   8   5.0484   3.7520  19.0497  -1.2098  -0.5907   6.5567   0.00    0.0
2166 394334.600   78.843168335   12.604874156   170.5165   5   8   5.0485   3.7520  19.0500  -1.2098  -0.5898   6.5572   0.00    0.0
2166 394334.800   78.843172987   12.604854635   171.1757   5   8   5.0487   3.7520  19.0504  -1.2098  -0.5889   6.5577   0.00    0.0
2166 394335.000   78.843170441   12.604863936   169.9411   5   8   5.0488   3.7520  19.0508  -1.2098  -0.5880   6.5581   0.00    0.0
2166 394335.200   78.843171862   12.604874104   169.1332   5   8   5.0490   3.7520  19.0512  -1.2098  -0.5871   6.5586   0.00    0.0
2166 394335.400   78.843174093   12.604875670   169.2353   5   8   5.0491   3.7520  19.0516  -1.2098  -0.5861   6.5591   0.00    0.0
2166 394335.600   78.843177652   12.604870153   169.0610   5   8   5.0492   3.7520  19.0520  -1.2097  -0.5852   6.5595   0.00    0.0
2166 394335.800   78.843176735   12.604858757   169.0464   5   8   5.0494   3.7520  19.0524  -1.2097  -0.5843   6.5600   0.00    0.0
2166 394336.000   78.843174000   12.604849286   169.7312   5   8   5.0495   3.7520  19.0527  -1.2097  -0.5834   6.5605   0.00    0.0
2166 394336.200   78.843175718   12.604852329   172.2035   5   8   5.0497   3.7521  19.0531  -1.2097  -0.5824   6.5609   0.00    0.0
2166 394336.400   78.843172082   12.604842546   168.7251   5   8   5.0498   3.7521  19.0535  -1.2097  -0.5815   6.5614   0.00    0.0
2166 394336.600   78.843174805   12.604839413   168.4167   5   8   5.0499   3.7521  19.0539  -1.2097  -0.5806   6.5619   0.00    0.0
2166 394336.800   78.843177132   12.604841277   169.6842   5   8   5.0501   3.7521  19.0543  -1.2097  -0.5797   6.5623   0.00    0.0
2166 394337.000   78.843179115   12.604826228   168.1169   5   8   5.0502   3.7521  19.0547  -1.2097  -0.5787   6.5628   0.00    0.0
2166 394337.200   78.843179901   12.604821037   167.7381   5   8   5.0504   3.7521  19.0550  -1.2097  -0.5778   6.5633   0.00    0.0
2166 394337.400   78.843179876   12.604827872   167.7607   5   8   5.0505   3.7521  19.0554  -1.2097  -0.5768   6.5637   0.00    0.0
2166 394337.600   78.843182775   12.604819951   169.3646   5   8   5.0506   3.7521  19.0558  -1.2097  -0.5759   6.5642   0.00    0.0
2166 394337.800   78.843184345   12.604832743   168.1923   5   7   5.0573   3.9192  22.3038  -1.3241  -3.6676   6.7869   0.00    0.0
2166 394338.000   78.843185870   12.604837730   167.6781   5   7   5.0574   3.9192  22.3046  -1.3241  -3.6675   6.7876   0.00    0.0
2166 394338.200   78.843192921   12.604822924   174.3134   5   8   5.0511   3.7522  19.0569  -1.2096  -0.5731   6.5656   0.00    0.0
2166 394338.400   78.843186868   12.604848646   173.6746   5   8   5.0512   3.7522  19.0573  -1.2096  -0.5722   6.5660   0.00    0.0
2166 394338.600   78.843181007   12.604843898   171.0649   5   8   5.0513   3.7522  19.0577  -1.2096  -0.5712   6.5665   0.00    0.0
2166 394338.800   78.843185167   12.604828751   170.6649   5   8   5.0515   3.7522  19.0581  -1.2096  -0.5703   6.5670   0.00    0.0
2166 394339.000   78.843190124   12.604821089   170.8086   5   8   5.0516   3.7522  19.0585  -1.2096  -0.5693   6.5674   0.00    0.0
2166 394339.200   78.843188893   12.604829925   170.2076   5   8   5.0518   3.7522  19.0589  -1.2096  -0.5684   6.5679   0.00    0.0
2166 394339.400   78.843187341   12.604828598   170.6695   5   8   5.0519   3.7522  19.0592  -1.2096  -0.5674   6.5684   0.00    0.0
2166 394339.600   78.843185576   12.604830521   169.5381   5   8   5.0520   3.7522  19.0596  -1.2096  -0.5665   6.5688   0.00    0.0
2166 394339.800   78.843185889   12.604803997   169.3048   5   8   5.0522   3.7522  19.0600  -1.2096  -0.5655   6.5693   0.00    0.0
2166 394340.000   78.843189813   12.604795216   169.6980   5   8   5.0523   3.7522  19.0604  -1.2095  -0.5645   6.5698   0.00    0.0
2166 394340.200   78.843189227   12.604800972   170.1487   5   8   5.0525   3.7523  19.0608  -1.2095  -0.5636   6.5702   0.00    0.0
2166 394340.400   78.843188914   12.604816022   170.1064   5   8   5.0526   3.7523  19.0611  -1.2095  -0.5626   6.5707   0.00    0.0
2166 394340.600   78.843188108   12.604820318   169.5713   5   8   5.0527   3.7523  19.0615  -1.2095  -0.5617   6.5712   0.00    0.0
2166 394340.800   78.843188955   12.604817035   168.0613   5   8   5.0529   3.7523  19.0619  -1.2095  -0.5607   6.5716   0.00    0.0
2166 394341.000   78.843192413   12.604811399   168.7173   5   8   5.0530   3.7523  19.0623  -1.2095  -0.5598   6.5721   0.00    0.0
2166 394341.200   78.843195448   12.604808426   169.9349   5   8   5.0532   3.7523  19.0627  -1.2095  -0.5588   6.5726   0.00    0.0
2166 394341.400   78.843198685   12.604796209   170.2991   5   8   5.0533   3.7523  19.0630  -1.2095  -0.5578   6.5730   0.00    0.0
2166 394341.600   78.843198843   12.604790542   169.5853   5   8   5.0534   3.7523  19.0634  -1.2095  -0.5569   6.5735   0.00    0.0
2166 394341.800   78.843194859   12.604791976   168.6899   5   8   5.0536   3.7523  19.0638  -1.2095  -0.5559   6.5739   0.00    0.0
2166 394342.000   78.843195653   12.604781700   168.6762   5   8   5.0537   3.7523  19.0642  -1.2095  -0.5549   6.5744   0.00    0.0
2166 394342.200   78.843198331   12.604777987   168.1001   5   8   5.0539   3.7524  19.0645  -1.2094  -0.5539   6.5749   0.00    0.0
2166 394342.400   78.843200231   12.604777803   167.6304   5   8   5.0540   3.7524  19.0649  -1.2094  -0.5530   6.5753   0.00    0.0
2166 394342.600   78.843203956   12.604774212   169.2749   5   8   5.0541   3.7524  19.0653  -1.2094  -0.5520   6.5758   0.00    0.0
2166 394342.800   78.843201547   12.604771641   169.6033   5   8   5.0543   3.7524  19.0657  -1.2094  -0.5510   6.5763   0.00    0.0
2166 394343.000   78.843204531   12.604766725   169.7662   5   8   5.0544   3.7524  19.0661  -1.2094  -0.5500   6.5767   0.00    0.0
2166 394343.200   78.843203023   12.604757689   169.2003   5   8   5.0546   3.7524  19.0664  -1.2094  -0.5490   6.5772   0.00    0.0
2166 394343.400   78.843204781   12.604742682   169.7539   5   8   5.0547   3.7524  19.0668  -1.2094  -0.5480   6.5777   0.00    0.0
2166 394343.600   78.843209838   12.604752336   168.9476   5   8   5.0548   3.7524  19.0672  -1.2094  -0.5471   6.5781   0.00    0.0
2166 394343.800   78.843209177   12.604758032   169.0493   5   8   5.0550   3.7524  19.0676  -1.2094  -0.5461   6.5786   0.00    0.0
2166 394344.000   78.843206361   12.604748493   168.4097   5   8   5.0551   3.7524  19.0679  -1.2094  -0.5451   6.5790   0.00    0.0
2166 394344.200   78.843206284   12.604741916   166.6064   5   8   5.0553   3.7525  19.0683  -1.2093  -0.5441   6.5795   0.00    0.0
2166 394344.400   78.843209897   12.604739362   167.3248   5   8   5.0554   3.7525  19.0687  -1.2093  -0.5431   6.5800   0.00    0.0
2166 394344.600   78.843211493   12.604732902   167.6025   5   8   5.0555   3.7525  19.0691  -1.2093  -0.5421   6.5804   0.00    0.0
2166 394344.800   78.843211307   12.604734267   167.3453   5   8   5.0557   3.7525  19.0694  -1.2093  -0.5411   6.5809   0.00    0.0
2166 394345.000   78.843213876   12.604739444   168.9514   5   8   5.0558   3.7525  19.0698  -1.2093  -0.5401   6.5814   0.00    0.0
2166 394345.200   78.843213233   12.604741596   168.5370   5   8   5.0560   3.7525  19.0702  -1.2093  -0.5391   6.5818   0.00    0.0
2166 394345.400   78.843215663   12.604739340   169.3293   5   8   5.0561   3.7525  19.0706  -1.2093  -0.5381   6.5823   0.00    0.0
2166 394345.600   78.843216781   12.604741984   170.4356   5   8   5.0562   3.7525  19.0709  -1.2093  -0.5371   6.5827   0.00    0.0
2166 394345.800   78.843216739   12.604737636   170.6305   5   8   5.0564   3.7525  19.0713  -1.2093  -0.5361   6.5832   0.00    0.0
2166 394346.000   78.843213484   12.604740138   169.2564   5   8   5.0565   3.7525  19.0717  -1.2093  -0.5351   6.5837   0.00    0.0
2166 394346.200   78.843215012   12.604731613   169.9170   5   8   5.0567   3.7526  19.0721  -1.2093  -0.5341   6.5841   0.00    0.0
2166 394346.400   78.843219384   12.604705033   170.0323   5   8   5.0568   3.7526  19.0724  -1.2092  -0.5331   6.5846   0.00    0.0
2166 394346.600   78.843221560   12.604699755   168.8021   5   8   5.0569   3.7526  19.0728  -1.2092  -0.5320   6.5851   0.00    0.0
2166 394346.800   78.843217412   12.604716629   168.2201   5   8   5.0571   3.7526  19.0732  -1.2092  -0.5310   6.5855   0.00    0.0
2166 394347.000   78.843217524   12.604695975   169.1824   5   8   5.0572   3.7526  19.0736  -1.2092  -0.5300   6.5860   0.00    0.0
2166 394347.200   78.843218431   12.604688256   170.0375   5   8   5.0574   3.7526  19.0739  -1.2092  -0.5290   6.5865   0.00    0.0
2166 394347.400   78.843220425   12.604689393   169.8237   5   8   5.0575   3.7526  19.0743  -1.2092  -0.5280   6.5869   0.00    0.0
2166 394347.600   78.843222826   12.604684757   168.9779   5   8   5.0576   3.7526  19.0747  -1.2092  -0.5269   6.5874   0.00    0.0
2166 394347.800   78.843225231   12.604676497   169.2057   5   8   5.0578   3.7526  19.0751  -1.2092  -0.5259   6.5878   0.00    0.0
2166 394348.000   78.843223059   12.604677793   169.1780   5   8   5.0579   3.7526  19.0754  -1.2092  -0.5249   6.5883   0.00    0.0
2166 394348.200   78.843224404   12.604674031   170.2183   5   8   5.0581   3.7527  19.0758  -1.2092  -0.5239   6.5888   0.00    0.0
2166 394348.400   78.843224339   12.604673452   170.5369   5   8   5.0582   3.7527  19.0762  -1.2091  -0.5228   6.5892   0.00    0.0
2166 394348.600   78.843228371   12.604654927   169.9877   5   8   5.0583   3.7527  19.0766  -1.2091  -0.5218   6.5897   0.00    0.0
2166 394348.800   78.843231105   12.604654520   170.4072   5   8   5.0585   3.7527  19.0769  -1.2091  -0.5207   6.5901   0.00    0.0
2166 394349.000   78.843226870   12.604661905   170.0630   5   8   5.0586   3.7527  19.0773  -1.2091  -0.5197   6.5906   0.00    0.0
2166 394349.200   78.843230293   12.604640071   169.4244   5   8   5.0588   3.7527  19.0777  -1.2091  -0.5187   6.5911   0.00    0.0
2166 394349.400   78.843231090   12.604639305   168.3724   5   8   5.0589   3.7527  19.0780  -1.2091  -0.5176   6.5915   0.00    0.0
2166 394349.600   78.843238843   12.604629574   167.7285   5   8   5.0590   3.7527  19.0784  -1.2091  -0.5166   6.5920   0.00    0.0
2166 394349.800   78.843241874   12.604622050   169.5032   5   8   5.0592   3.7527  19.0788  -1.2091  -0.5155   6.5925   0.00    0.0
2166 394350.000   78.843237727   12.604611665   168.6304   5   8   5.0593   3.7527  19.0792  -1.2091  -0.5145   6.5929   0.00    0.0
2166 394350.200   78.843240176   12.604613182   169.1913   5   8   5.0595   3.7528  19.0795  -1.2091  -0.5134   6.5934   0.00    0.0
2166 394350.400   78.843243777   12.604605381   169.0479   5   8   5.0596   3.7528  19.0799  -1.2090  -0.5124   6.5938   0.00    0.0
2166 394350.600   78.843241541   12.604617361   168.5538   5   8   5.0597   3.7528  19.0803  -1.2090  -0.5113   6.5943   0.00    0.0
2166 394350.800   78.843240134   12.604611718   167.5952   5   8   5.0599   3.7528  19.0806  -1.2090  -0.5103   6.5948   0.00    0.0
2166 394351.000   78.843243714   12.604601725   168.6642   5   8   5.0600   3.7528  19.0810  -1.2090  -0.5092   6.5952   0.00    0.0
2166 394351.200   78.843242133   12.604596172   169.3845   5   8   5.0602   3.7528  19.0814  -1.2090  -0.5081   6.5957   0.00    0.0
2166 394351.400   78.843241302   12.604615646   170.7856   5   8   5.0603   3.7528  19.0818  -1.2090  -0.5071   6.5961   0.00    0.0
2166 394351.600   78.843241255   12.604604822   171.4773   5   8   5.0604   3.7528  19.0821  -1.2090  -0.5060   6.5966   0.00    0.0
2166 394351.800   78.843238562   12.604604794   169.5516   5   8   5.0606   3.7528  19.0825  -1.2090  -0.5049   6.5971   0.00    0.0
2166 394352.000   78.843246953   12.604603750   170.6586   5   8   5.0607   3.7528  19.0829  -1.2090  -0.5039   6.5975   0.00    0.0
2166 394352.200   78.843245210   12.604592985   169.7839   5   8   5.0609   3.7529  19.0832  -1.2090  -0.5028   6.5980   0.00    0.0
2166 394352.400   78.843244108   12.604609781   168.4564   5   8   5.0610   3.7529  19.0836  -1.2089  -0.5017   6.5985   0.00    0.0
2166 394352.600   78.843242049   12.604598338   167.6050   5   8   5.0611   3.7529  19.0840  -1.2089  -0.5007   6.5989   0.00    0.0
2166 394352.800   78.843244719   12.604583515   168.6277   5   8   5.0613   3.7529  19.0843  -1.2089  -0.4996   6.5994   0.00    0.0
2166 394353.000   78.843247981   12.604553857   170.1431   5   8   5.0614   3.7529  19.0847  -1.2089  -0.4985   6.5998   0.00    0.0
2166 394353.200   78.843248114   12.604553736   171.1673   5   8   5.0616   3.7529  19.0851  -1.2089  -0.4974   6.6003   0.00    0.0
2166 394353.400   78.843250642   12.604561073   171.5905   5   8   5.0617   3.7529  19.0854  -1.2089  -0.4963   6.6008   0.00    0.0
2166 394353.600   78.843251158   12.604555432   170.6692   5   8   5.0618   3.7529  19.0858  -1.2089  -0.4952   6.6012   0.00    0.0
2166 394353.800   78.843249241   12.604548922   168.9802   5   8   5.0620   3.7529  19.0862  -1.2089  -0.4941   6.6017   0.00    0.0
2166 394354.000   78.843252823   12.604548020   170.0514   5   8   5.0621   3.7529  19.0866  -1.2089  -0.4930   6.6021   0.00    0.0
2166 394354.200   78.843249975   12.604549999   169.0846   5   8   5.0623   3.7530  19.0869  -1.2089  -0.4919   6.6026   0.00    0.0
2166 394354.400   78.843254552   12.604551962   169.2548   5   8   5.0624   3.7530  19.0873  -1.2088  -0.4908   6.6031   0.00    0.0
2166 394354.600   78.843251463   12.604549316   169.4833   5   8   5.0625   3.7530  19.0877  -1.2088  -0.4897   6.6035   0.00    0.0
2166 394354.800   78.843251782   12.604537744   167.0661   5   8   5.0627   3.7530  19.0880  -1.2088  -0.4886   6.6040   0.00    0.0
2166 394355.000   78.843255699   12.604536856   165.9251   5   8   5.0628   3.7530  19.0884  -1.2088  -0.4875   6.6044   0.00    0.0
2166 394355.200   78.843259283   12.604539433   167.8131   5   8   5.0630   3.7530  19.0888  -1.2088  -0.4864   6.6049   0.00    0.0
2166 394355.400   78.843259237   12.604543646   168.2976   5   8   5.0631   3.7530  19.0891  -1.2088  -0.4853   6.6054   0.00    0.0
2166 394355.600   78.843257329   12.604546522   168.4783   5   8   5.0632   3.7530  19.0895  -1.2088  -0.4842   6.6058   0.00    0.0
2166 394355.800   78.843256611   12.604537364   167.5356   5   8   5.0634   3.7530  19.0899  -1.2088  -0.4831   6.6063   0.00    0.0
2166 394356.000   78.843259678   12.604523816   169.2306   5   8   5.0635   3.7530  19.0902  -1.2088  -0.4820   6.6067   0.00    0.0
2166 394356.200   78.843260758   12.604515093   169.8458   5   8   5.0637   3.7531  19.0906  -1.2088  -0.4808   6.6072   0.00    0.0
2166 394356.400   78.843261465   12.604523804   169.2287   5   8   5.0638   3.7531  19.0910  -1.2087  -0.4797   6.6077   0.00    0.0
2166 394356.600   78.843264248   12.604512560   171.7716   5   8   5.0639   3.7531  19.0913  -1.2087  -0.4786   6.6081   0.00    0.0
2166 394356.800   78.843261417   12.604506308   169.6200   5   8   5.0641   3.7531  19.0917  -1.2087  -0.4774   6.6086   0.00    0.0
2166 394357.000   78.843261925   12.604493955   167.9486   5   8   5.0642   3.7531  19.0921  -1.2087  -0.4763   6.6090   0.00    0.0
2166 394357.200   78.843265023   12.604494606   167.2221   5   8   5.0644   3.7531  19.0924  -1.2087  -0.4752   6.6095   0.00    0.0
2166 394357.400   78.843270373   12.604492863   169.2378   5   8   5.0645   3.7531  19.0928  -1.2087  -0.4740   6.6100   0.00    0.0
2166 394357.600   78.843266937   12.604493250   168.0854   5   8   5.0646   3.7531  19.0932  -1.2087  -0.4729   6.6104   0.00    0.0
2166 394357.800   78.843266880   12.604478809   168.6144   5   8   5.0648   3.7531  19.0935  -1.2087  -0.4717   6.6109   0.00    0.0
2166 394358.000   78.843268171   12.604479841   168.9065   5   8   5.0649   3.7531  19.0939  -1.2087  -0.4706   6.6113   0.00    0.0
2166 394358.200   78.843269783   12.604467437   168.7080   5   8   5.0651   3.7532  19.0942  -1.2087  -0.4694   6.6118   0.00    0.0
2166 394358.400   78.843269761   12.604477435   168.9287   5   8   5.0652   3.7532  19.0946  -1.2086  -0.4683   6.6123   0.00    0.0
2166 394358.600   78.843271023   12.604483933   168.6567   5   8   5.0653   3.7532  19.0950  -1.2086  -0.4672   6.6127   0.00    0.0
2166 394358.800   78.843272345   12.604486004   167.6521   5   8   5.0655   3.7532  19.0953  -1.2086  -0.4660   6.6132   0.00    0.0
2166 394359.000   78.843273256   12.604492110   169.6112   5   8   5.0656   3.7532  19.0957  -1.2086  -0.4648   6.6136   0.00    0.0
2166 394359.200   78.843273474   12.604478383   170.1261   5   7   9.5097   4.0002  32.7332   3.1106   6.0476  16.0535   0.00    0.0
2166 394359.400   78.843273744   12.604473977   168.4604   5   7   9.5096   4.0002  32.7318   3.1105   6.0473  16.0529   0.00    0.0
2166 394359.600   78.843274637   12.604456838   167.4172   5   7   9.5095   4.0001  32.7304   3.1104   6.0471  16.0524   0.00    0.0
2166 394359.800   78.843271739   12.604444976   165.0773   5   7   9.5093   4.0001  32.7290   3.1103   6.0468  16.0519   0.00    0.0
2166 394360.000   78.843271833   12.604456246   166.6538   5   7   9.5092   4.0001  32.7276   3.1101   6.0466  16.0514   0.00    0.0
2166 394360.200   78.843279915   12.604476367   168.1637   5   8   5.0665   3.7532  19.0979  -1.2085  -0.4578   6.6164   0.00    0.0
2166 394360.400   78.843280844   12.604471375   167.7608   5   8   5.0666   3.7533  19.0982  -1.2085  -0.4566   6.6168   0.00    0.0
2166 394360.600   78.843283732   12.604458743   168.5924   5   8   5.0667   3.7533  19.0986  -1.2085  -0.4555   6.6173   0.00    0.0
2166 394360.800   78.843285366   12.604459635   168.4426   5   8   5.0669   3.7533  19.0990  -1.2085  -0.4543   6.6178   0.00    0.0
2166 394361.000   78.843284779   12.604447408   167.9810   5   8   5.0670   3.7533  19.0993  -1.2085  -0.4531   6.6182   0.00    0.0
2166 394361.200   78.843284485   12.604427061   168.0029   5   8   5.0672   3.7533  19.0997  -1.2085  -0.4519   6.6187   0.00    0.0
2166 394361.400   78.843284377   12.604433834   167.8207   5   8   5.0673   3.7533  19.1000  -1.2085  -0.4507   6.6191   0.00    0.0
2166 394361.600   78.843288126   12.604424963   167.1988   5   8   5.0674   3.7533  19.1004  -1.2085  -0.4495   6.6196   0.00    0.0
2166 394361.800   78.843285563   12.604443619   166.0637   5   8   5.0676   3.7533  19.1008  -1.2085  -0.4483   6.6200   0.00    0.0
2166 394362.000   78.843281554   12.604437695   165.6061   5   8   5.0677   3.7533  19.1011  -1.2085  -0.4471   6.6205   0.00    0.0
2166 394362.200   78.843284464   12.604421383   165.8993   5   8   5.0679   3.7533  19.1015  -1.2084  -0.4459   6.6210   0.00    0.0
2166 394362.400   78.843289956   12.604419564   167.7739   5   8   5.0680   3.7534  19.1019  -1.2084  -0.4446   6.6214   0.00    0.0
2166 394362.600   78.843289283   12.604439317   167.4096   5   8   5.0681   3.7534  19.1022  -1.2084  -0.4434   6.6219   0.00    0.0
2166 394362.800   78.843287762   12.604427817   168.3310   5   8   5.0683   3.7534  19.1026  -1.2084  -0.4422   6.6223   0.00    0.0
2166 394363.000   78.843287519   12.604416028   167.0642   5   8   5.0684   3.7534  19.1029  -1.2084  -0.4410   6.6228   0.00    0.0
2166 394363.200   78.843289137   12.604414217   168.5157   5   8   5.0686   3.7534  19.1033  -1.2084  -0.4398   6.6233   0.00    0.0
2166 394363.400   78.843292386   12.604418970   169.5966   5   8   5.0687   3.7534  19.1037  -1.2084  -0.4385   6.6237   0.00    0.0
2166 394363.600   78.843294862   12.604412256   169.3286   5   8   5.0688   3.7534  19.1040  -1.2084  -0.4373   6.6242   0.00    0.0
2166 394363.800   78.843297173   12.604425340   169.5386   5   8   5.0690   3.7534  19.1044  -1.2084  -0.4361   6.6246   0.00    0.0
2166 394364.000   78.843297036   12.604426826   169.3922   5   8   5.0691   3.7534  19.1047  -1.2083  -0.4348   6.6251   0.00    0.0
2166 394364.200   78.843302082   12.604412873   168.6536   5   8   5.0693   3.7534  19.1051  -1.2083  -0.4336   6.6255   0.00    0.0
2166 394364.400   78.843300800   12.604408249   169.2897   5   8   5.0694   3.7535  19.1054  -1.2083  -0.4323   6.6260   0.00    0.0
2166 394364.600   78.843298871   12.604403502   167.1480   5   8   5.0695   3.7535  19.1058  -1.2083  -0.4311   6.6265   0.00    0.0
2166 394364.800   78.843294576   12.604391353   167.3559   5   8   5.0697   3.7535  19.1062  -1.2083  -0.4298   6.6269   0.00    0.0
2166 394365.000   78.843297508   12.604365622   168.4459   5   8   5.0698   3.7535  19.1065  -1.2083  -0.4286   6.6274   0.00    0.0
2166 394365.200   78.843298171   12.604345985   167.8792   5   8   5.0700   3.7535  19.1069  -1.2083  -0.4273   6.6278   0.00    0.0
2166 394365.400   78.843300836   12.604344208   168.4753   5   8   5.0701   3.7535  19.1072  -1.2083  -0.4260   6.6283   0.00    0.0
2166 394365.600   78.843301102   12.604354474   167.6494   5   8   5.0703   3.7535  19.1076  -1.2083  -0.4248   6.6287   0.00    0.0
2166 394365.800   78.843302630   12.604358669   167.7124   5   8   5.0704   3.7535  19.1080  -1.2082  -0.4235   6.6292   0.00    0.0
2166 394366.000   78.843300860   12.604336861   170.1320   5   8   5.0705   3.7535  19.1083  -1.2082  -0.4222   6.6297   0.00    0.0
2166 394366.200   78.843303471   12.604358359   169.5836   5   8   5.0707   3.7535  19.1087  -1.2082  -0.4209   6.6301   0.00    0.0
2166 394366.400   78.843303979   12.604346475   169.4575   5   8   5.0708   3.7536  19.1090  -1.2082  -0.4196   6.6306   0.00    0.0
2166 394366.600   78.843300897   12.604339318   167.9320   5   8   5.0710   3.7536  19.1094  -1.2082  -0.4184   6.6310   0.00    0.0
2166 394366.800   78.843301287   12.604328683   167.6592   5   8   5.0711   3.7536  19.1097  -1.2082  -0.4171   6.6315   0.00    0.0
2166 394367.000   78.843303502   12.604324286   167.9414   5   8   5.0712   3.7536  19.1101  -1.2082  -0.4158   6.6319   0.00    0.0
2166 394367.200   78.843304331   12.604318973   168.4645   5   8   5.0714   3.7536  19.1105  -1.2082  -0.4145   6.6324   0.00    0.0
2166 394367.400   78.843307547   12.604301874   168.2627   5   8   5.0715   3.7536  19.1108  -1.2082  -0.4131   6.6328   0.00    0.0
2166 394367.600   78.843308271   12.604297429   167.8722   5   8   5.0717   3.7536  19.1112  -1.2081  -0.4118   6.6333   0.00    0.0
2166 394367.800   78.843306296   12.604299937   168.7815   5   8   5.0718   3.7536  19.1115  -1.2081  -0.4105   6.6338   0.00    0.0
2166 394368.000   78.843305967   12.604311638   169.2745   5   8   5.0719   3.7536  19.1119  -1.2081  -0.4092   6.6342   0.00    0.0
2166 394368.200   78.843306577   12.604291394   169.0667   5   8   5.0721   3.7536  19.1122  -1.2081  -0.4079   6.6347   0.00    0.0
2166 394368.400   78.843304745   12.604309949   169.3427   5   8   5.0722   3.7537  19.1126  -1.2081  -0.4066   6.6351   0.00    0.0
2166 394368.600   78.843305140   12.604301792   172.0995   5   8   5.0724   3.7537  19.1129  -1.2081  -0.4052   6.6356   0.00    0.0
2166 394368.800   78.843303883   12.604277134   169.7931   5   8   5.0725   3.7537  19.1133  -1.2081  -0.4039   6.6360   0.00    0.0
2166 394369.000   78.843308176   12.604284682   168.9453   5   8   5.0726   3.7537  19.1137  -1.2081  -0.4026   6.6365   0.00    0.0
2166 394369.200   78.843310899   12.604277783   168.7718   5   8   5.0728   3.7537  19.1140  -1.2081  -0.4012   6.6369   0.00    0.0
2166 394369.400   78.843310104   12.604284220   168.7838   5   8   5.0729   3.7537  19.1144  -1.2080  -0.3999   6.6374   0.00    0.0
2166 394369.600   78.843309641   12.604282611   169.0611   5   8   5.0731   3.7537  19.1147  -1.2080  -0.3985   6.6379   0.00    0.0
2166 394369.800   78.843310009   12.604282012   167.7295   5   8   5.0732   3.7537  19.1151  -1.2080  -0.3972   6.6383   0.00    0.0
2166 394370.000   78.843308318   12.604273245   168.6823   5   8   5.0733   3.7537  19.1154  -1.2080  -0.3958   6.6388   0.00    0.0
2166 394370.200   78.843311925   12.604264675   169.0597   5   8   5.0735   3.7537  19.1158  -1.2080  -0.3944   6.6392   0.00    0.0
2166 394370.400   78.843315370   12.604260380   170.1122   5   8   5.0736   3.7538  19.1161  -1.2080  -0.3931   6.6397   0.00    0.0
2166 394370.600   78.843319917   12.604252654   171.4179   5   8   5.0738   3.7538  19.1165  -1.2080  -0.3917   6.6401   0.00    0.0
2166 394370.800   78.843319341   12.604254931   169.5495   5   8   5.0739   3.7538  19.1168  -1.2080  -0.3903   6.6406   0.00    0.0
2166 394371.000   78.843318102   12.604260521   169.4429   5   8   5.0740   3.7538  19.1172  -1.2080  -0.3889   6.6410   0.00    0.0
2166 394371.200   78.843319435   12.604249159   169.9370   5   8   5.0742   3.7538  19.1175  -1.2079  -0.3875   6.6415   0.00    0.0
2166 394371.400   78.843319445   12.604252134   169.8287   5   8   5.0743   3.7538  19.1179  -1.2079  -0.3861   6.6420   0.00    0.0
2166 394371.600   78.843319540   12.604249538   169.7781   5   8   5.0745   3.7538  19.1182  -1.2079  -0.3847   6.6424   0.00    0.0
2166 394371.800   78.843316962   12.604247842   167.2316   5   8   5.0746   3.7538  19.1186  -1.2079  -0.3833   6.6429   0.00    0.0
2166 394372.000   78.843316044   12.604240737   167.8645   5   8   5.0747   3.7538  19.1190  -1.2079  -0.3819   6.6433   0.00    0.0
2166 394372.200   78.843323102   12.604224365   169.5728   5   8   5.0749   3.7538  19.1193  -1.2079  -0.3805   6.6438   0.00    0.0
2166 394372.400   78.843324144   12.604200423   170.1964   5   8   5.0750   3.7539  19.1197  -1.2079  -0.3791   6.6442   0.00    0.0
2166 394372.600   78.843326775   12.604199794   170.2612   5   8   5.0752   3.7539  19.1200  -1.2079  -0.3776   6.6447   0.00    0.0
2166 394372.800   78.843325880   12.604209078   169.5236   5   8   5.0753   3.7539  19.1204  -1.2079  -0.3762   6.6451   0.00    0.0
2166 394373.000   78.843329470   12.604207742   169.2439   5   8   5.0755   3.7539  19.1207  -1.2078  -0.3748   6.6456   0.00    0.0
2166 394374.200   78.843360905   12.603764973   190.3854   5   4  25.8729  28.7852  93.0466 -15.4256 -43.9883  45.2298   0.00    0.0
2166 394374.400   78.843329574   12.604164634   169.2571   5   6   9.6855   4.7647  34.5289   2.1694   2.6534  16.6684   0.00    0.0
2166 394374.600   78.843323879   12.604163636   166.9255   5   6   9.6855   4.7647  34.5288   2.1686   2.6509  16.6684   0.00    0.0
2166 394374.800   78.843298954   12.604151052   158.9896   5   5  28.0745   5.0902  58.2982   8.3732  12.6335  39.0128   0.00    0.0
2166 394375.000   78.843361112   12.604157206   173.9537   5   5  28.0796   5.0901  58.3049   8.3736  12.6337  39.0191   0.00    0.0
2166 394375.200   78.843342686   12.604151823   169.8028   5   7   9.4977   3.9993  32.6192   3.1001   6.0259  16.0105   0.00    0.0
2166 394375.400   78.843347222   12.604153988   170.9015   5   8   5.0771   3.7540  19.1249  -1.2077  -0.3571   6.6510   0.00    0.0
2166 394375.600   78.843347740   12.604149444   169.3188   5   8   5.0773   3.7540  19.1253  -1.2077  -0.3555   6.6515   0.00    0.0
2166 394375.800   78.843343817   12.604166218   169.1955   5   8   5.0774   3.7540  19.1256  -1.2077  -0.3540   6.6519   0.00    0.0
2166 394376.000   78.843342293   12.604171555   168.8694   5   8   5.0776   3.7540  19.1260  -1.2077  -0.3525   6.6524   0.00    0.0
2166 394376.200   78.843344340   12.604159408   169.1532   5   8   5.0777   3.7540  19.1263  -1.2077  -0.3510   6.6529   0.00    0.0
2166 394376.400   78.843342851   12.604159155   168.8886   5   8   5.0778   3.7541  19.1267  -1.2077  -0.3494   6.6533   0.00    0.0
2166 394376.600   78.843343539   12.604157416   168.1356   5   8   5.0780   3.7541  19.1270  -1.2076  -0.3479   6.6538   0.00    0.0
2166 394376.800   78.843345689   12.604156725   169.2455   5   8   5.0781   3.7541  19.1273  -1.2076  -0.3463   6.6542   0.00    0.0
2166 394377.000   78.843347410   12.604137776   169.2399   5   8   5.0783   3.7541  19.1277  -1.2076  -0.3448   6.6547   0.00    0.0
2166 394377.200   78.843348341   12.604135292   169.2660   5   8   5.0784   3.7541  19.1280  -1.2076  -0.3432   6.6551   0.00    0.0
2166 394377.400   78.843347722   12.604135306   168.9200   5   8   5.0785   3.7541  19.1284  -1.2076  -0.3416   6.6556   0.00    0.0
2166 394377.600   78.843350596   12.604119688   167.7279   5   8   5.0787   3.7541  19.1287  -1.2076  -0.3400   6.6560   0.00    0.0
2166 394377.800   78.843353221   12.604107770   167.8885   5   8   5.0788   3.7541  19.1291  -1.2076  -0.3384   6.6565   0.00    0.0
2166 394378.000   78.843354943   12.604097822   169.0562   5   8   5.0790   3.7541  19.1294  -1.2076  -0.3368   6.6569   0.00    0.0
2166 394378.200   78.843356147   12.604106585   169.2516   5   8   5.0791   3.7541  19.1298  -1.2075  -0.3352   6.6574   0.00    0.0
2166 394378.400   78.843353867   12.604107958   168.7306   5   8   5.0792   3.7542  19.1301  -1.2075  -0.3336   6.6578   0.00    0.0
2166 394378.600   78.843357964   12.604097978   167.7595   5   8   5.0794   3.7542  19.1305  -1.2075  -0.3320   6.6583   0.00    0.0
2166 394378.800   78.843357698   12.604086515   168.6675   5   8   5.0795   3.7542  19.1308  -1.2075  -0.3304   6.6587   0.00    0.0
2166 394379.000   78.843359385   12.604085483   168.3039   5   8   5.0797   3.7542  19.1312  -1.2075  -0.3287   6.6592   0.00    0.0
2166 394379.200   78.843357132   12.604089012   168.9706   5   8   5.0798   3.7542  19.1315  -1.2075  -0.3271   6.6596   0.00    0.0
2166 394379.400   78.843357920   12.604079511   168.5858   5   8   5.0800   3.7542  19.1319  -1.2075  -0.3254   6.6601   0.00    0.0
2166 394379.600   78.843358650   12.604077594   169.1088   5   8   5.0801   3.7542  19.1322  -1.2075  -0.3238   6.6606   0.00    0.0
2166 394379.800   78.843360227   12.604088371   167.7651   5   8   5.0802   3.7542  19.1325  -1.2075  -0.3221   6.6610   0.00    0.0
2166 394380.000   78.843359988   12.604072379   168.8745   5   8   5.0804   3.7542  19.1329  -1.2074  -0.3204   6.6615   0.00    0.0
2166 394380.200   78.843361539   12.604073632   169.2039   5   8   5.0805   3.7542  19.1332  -1.2074  -0.3187   6.6619   0.00    0.0
2166 394380.400   78.843364135   12.604084280   169.7179   5   8   5.0807   3.7543  19.1336  -1.2074  -0.3170   6.6624   0.00    0.0
2166 394380.600   78.843364777   12.604086891   169.6612   5   8   5.0808   3.7543  19.1339  -1.2074  -0.3153   6.6628   0.00    0.0
2166 394380.800   78.843362449   12.604069851   169.0153   5   8   5.0809   3.7543  19.1343  -1.2074  -0.3136   6.6633   0.00    0.0
2166 394381.000   78.843360345   12.604063124   168.4456   5   8   5.0811   3.7543  19.1346  -1.2074  -0.3119   6.6637   0.00    0.0
2166 394381.200   78.843361437   12.604073884   168.8398   5   8   5.0812   3.7543  19.1350  -1.2074  -0.3102   6.6642   0.00    0.0
2166 394381.400   78.843364568   12.604072196   166.7411   5   8   5.0814   3.7543  19.1353  -1.2074  -0.3084   6.6646   0.00    0.0
2166 394381.600   78.843366259   12.604064057   168.1804   5   8   5.0815   3.7543  19.1356  -1.2073  -0.3067   6.6651   0.00    0.0
2166 394381.800   78.843365571   12.604066659   167.5695   5   8   5.0816   3.7543  19.1360  -1.2073  -0.3049   6.6655   0.00    0.0
2166 394382.000   78.843364261   12.604061040   168.1599   5   8   5.0818   3.7543  19.1363  -1.2073  -0.3031   6.6660   0.00    0.0
2166 394382.200   78.843366883   12.604047354   167.1991   5   8   5.0819   3.7543  19.1367  -1.2073  -0.3013   6.6664   0.00    0.0
2166 394382.400   78.843366459   12.604050888   166.7222   5   8   5.0821   3.7544  19.1370  -1.2073  -0.2995   6.6669   0.00    0.0
2166 394382.600   78.843369442   12.604056606   166.6307   5   8   5.0822   3.7544  19.1374  -1.2073  -0.2977   6.6673   0.00    0.0
2166 394382.800   78.843370619   12.604075226   166.4157   5   8   5.0823   3.7544  19.1377  -1.2073  -0.2959   6.6678   0.00    0.0
2166 394383.000   78.843369054   12.604056420   167.8968   5   8   5.0825   3.7544  19.1380  -1.2073  -0.2941   6.6682   0.00    0.0
2166 394383.200   78.843370691   12.604053888   168.5890   5   8   5.0826   3.7544  19.1384  -1.2072  -0.2923   6.6687   0.00    0.0
2166 394383.400   78.843369938   12.604038974   168.4130   5   8   5.0828   3.7544  19.1387  -1.2072  -0.2904   6.6691   0.00    0.0
2166 394383.600   78.843373189   12.604020004   168.4108   5   8   5.0829   3.7544  19.1391  -1.2072  -0.2885   6.6696   0.00    0.0
2166 394383.800   78.843372185   12.604001951   169.0925   5   8   5.0830   3.7544  19.1394  -1.2072  -0.2866   6.6700   0.00    0.0
2166 394384.000   78.843369818   12.604010713   169.6951   5   8   5.0832   3.7544  19.1397  -1.2072  -0.2847   6.6705   0.00    0.0
2166 394384.200   78.843373460   12.604011825   169.4507   5   8   5.0833   3.7544  19.1401  -1.2072  -0.2829   6.6709   0.00    0.0
2166 394384.400   78.843377958   12.604000944   168.1432   5   8   5.0835   3.7545  19.1404  -1.2072  -0.2809   6.6714   0.00    0.0
2166 394384.600   78.843372867   12.603991218   167.1146   5   8   5.0836   3.7545  19.1408  -1.2072  -0.2790   6.6718   0.00    0.0
2166 394384.800   78.843374618   12.603970429   168.1016   5   8   5.0838   3.7545  19.1411  -1.2072  -0.2770   6.6723   0.00    0.0
2166 394385.000   78.843375103   12.603966934   167.8141   5   8   5.0839   3.7545  19.1415  -1.2071  -0.2751   6.6727   0.00    0.0
2166 394385.200   78.843372612   12.603960600   168.6579   5   8   5.0840   3.7545  19.1418  -1.2071  -0.2731   6.6732   0.00    0.0
2166 394385.400   78.843372955   12.603969532   169.2052   5   8   5.0842   3.7545  19.1421  -1.2071  -0.2711   6.6736   0.00    0.0
2166 394385.600   78.843374029   12.603982973   168.9438   5   8   5.0843   3.7545  19.1425  -1.2071  -0.2692   6.6741   0.00    0.0
2166 394385.800   78.843377416   12.603974455   167.4653   5   8   5.0845   3.7545  19.1428  -1.2071  -0.2671   6.6745   0.00    0.0
2166 394386.000   78.843377651   12.603952042   165.8327   5   8   5.0846   3.7545  19.1432  -1.2071  -0.2651   6.6750   0.00    0.0
2166 394386.200   78.843379760   12.603931290   165.2275   5   8   5.0847   3.7545  19.1435  -1.2071  -0.2630   6.6754   0.00    0.0
2166 394386.400   78.843379252   12.603924775   167.5843   5   8   5.0849   3.7546  19.1438  -1.2071  -0.2610   6.6759   0.00    0.0
2166 394386.600   78.843378964   12.603927443   168.8578   5   8   5.0850   3.7546  19.1442  -1.2070  -0.2589   6.6763   0.00    0.0
2166 394386.800   78.843378020   12.603921420   170.1310   5   8   5.0852   3.7546  19.1445  -1.2070  -0.2568   6.6768   0.00    0.0
2166 394387.000   78.843376693   12.603936559   168.4635   5   8   5.0853   3.7546  19.1448  -1.2070  -0.2547   6.6772   0.00    0.0
2166 394387.200   78.843376032   12.603933075   170.0342   5   8   5.0854   3.7546  19.1452  -1.2070  -0.2526   6.6777   0.00    0.0
2166 394387.400   78.843372780   12.603921178   169.8253   5   8   5.0856   3.7546  19.1455  -1.2070  -0.2504   6.6781   0.00    0.0
2166 394387.600   78.843374568   12.603941220   168.6970   5   8   5.0857   3.7546  19.1459  -1.2070  -0.2483   6.6786   0.00    0.0
2166 394387.800   78.843377113   12.603934058   168.7219   5   8   5.0859   3.7546  19.1462  -1.2070  -0.2461   6.6790   0.00    0.0
2166 394388.000   78.843379586   12.603920889   167.9996   5   8   5.0860   3.7546  19.1465  -1.2070  -0.2439   6.6795   0.00    0.0
2166 394388.200   78.843378585   12.603911543   167.3701   5   8   5.0861   3.7546  19.1469  -1.2069  -0.2417   6.6799   0.00    0.0
2166 394388.400   78.843379694   12.603907618   167.5957   5   8   5.0863   3.7547  19.1472  -1.2069  -0.2394   6.6804   0.00    0.0
2166 394388.600   78.843377347   12.603891210   165.2432   5   8   5.0864   3.7547  19.1476  -1.2069  -0.2372   6.6808   0.00    0.0
